{
  "pharmacies": [
    {
      "id": 1,
      "name": "CVS Pharmacy",
      "address": "321 Main St, New York, NY 10001",
      "country": "USA",
      "city": "New York",
      "distance": 0.3,
      "hours": "24/7 Open",
      "phone": "+1-212-555-1234",
      "icon": "ğŸª",
      "rating": 4.5,
      "reviews": 890,
      "services": ["Prescription", "OTC", "Vaccinations", "Health Screening"]
    },
    {
      "id": 2,
      "name": "Walgreens",
      "address": "654 Oak Ave, Chicago, IL 60601",
      "country": "USA",
      "city": "Chicago",
      "distance": 0.5,
      "hours": "6AM - 12AM",
      "phone": "+1-312-555-9876",
      "icon": "ğŸª",
      "rating": 4.4,
      "reviews": 756,
      "services": ["Prescription", "OTC", "Vaccinations", "Photo"]
    },
    {
      "id": 3,
      "name": "Rite Aid",
      "address": "987 Pine Rd, Los Angeles, CA 90001",
      "country": "USA",
      "city": "Los Angeles",
      "distance": 0.7,
      "hours": "7AM - 11PM",
      "phone": "+1-213-555-4567",
      "icon": "ğŸª",
      "rating": 4.3,
      "reviews": 634,
      "services": ["Prescription", "OTC", "Health Screening"]
    },
    {
      "id": 4,
      "name": "Walmart Pharmacy",
      "address": "147 Shopping Center Dr, Dallas, TX 75201",
      "country": "USA",
      "city": "Dallas",
      "distance": 1.2,
      "hours": "8AM - 10PM",
      "phone": "+1-214-555-1111",
      "icon": "ğŸª",
      "rating": 4.2,
      "reviews": 523,
      "services": ["Prescription", "OTC", "Vaccinations"]
    },
    {
      "id": 5,
      "name": "Target Pharmacy",
      "address": "258 Retail Blvd, Miami, FL 33101",
      "country": "USA",
      "city": "Miami",
      "distance": 1.5,
      "hours": "8AM - 9PM",
      "phone": "+1-305-555-2222",
      "icon": "ğŸª",
      "rating": 4.1,
      "reviews": 445,
      "services": ["Prescription", "OTC"]
    },
    {
      "id": 6,
      "name": "Kroger Pharmacy",
      "address": "369 Grocery Ln, Houston, TX 77001",
      "country": "USA",
      "city": "Houston",
      "distance": 1.8,
      "hours": "7AM - 11PM",
      "phone": "+1-713-555-3333",
      "icon": "ğŸª",
      "rating": 4.3,
      "reviews": 567,
      "services": ["Prescription", "OTC", "Vaccinations"]
    },
    {
      "id": 7,
      "name": "Costco Pharmacy",
      "address": "852 Warehouse Way, Phoenix, AZ 85001",
      "country": "USA",
      "city": "Phoenix",
      "distance": 2.1,
      "hours": "10AM - 8:30PM",
      "phone": "+1-602-555-4444",
      "icon": "ğŸª",
      "rating": 4.6,
      "reviews": 789,
      "services": ["Prescription", "OTC", "Vaccinations"]
    },
    {
      "id": 8,
      "name": "Safeway Pharmacy",
      "address": "741 Market St, San Francisco, CA 94101",
      "country": "USA",
      "city": "San Francisco",
      "distance": 0.9,
      "hours": "7AM - 10PM",
      "phone": "+1-415-555-5555",
      "icon": "ğŸª",
      "rating": 4.4,
      "reviews": 678,
      "services": ["Prescription", "OTC", "Health Screening"]
    },
    {
      "id": 9,
      "name": "Albertsons Pharmacy",
      "address": "963 Food Ave, Seattle, WA 98101",
      "country": "USA",
      "city": "Seattle",
      "distance": 1.4,
      "hours": "8AM - 9PM",
      "phone": "+1-206-555-6666",
      "icon": "ğŸª",
      "rating": 4.2,
      "reviews": 456,
      "services": ["Prescription", "OTC"]
    },
    {
      "id": 10,
      "name": "Publix Pharmacy",
      "address": "159 Supermarket Rd, Orlando, FL 32801",
      "country": "USA",
      "city": "Orlando",
      "distance": 1.7,
      "hours": "8AM - 9PM",
      "phone": "+1-407-555-7777",
      "icon": "ğŸª",
      "rating": 4.5,
      "reviews": 612,
      "services": ["Prescription", "OTC", "Vaccinations"]
    },
    {
      "id": 11,
      "name": "Boots",
      "address": "123 High St, London W1 1AA",
      "country": "UK",
      "city": "London",
      "distance": 0.4,
      "hours": "8AM - 8PM",
      "phone": "+44-20-7123-4567",
      "icon": "ğŸª",
      "rating": 4.3,
      "reviews": 567,
      "services": ["Prescription", "OTC", "Beauty", "Photo"]
    },
    {
      "id": 12,
      "name": "Lloyds Pharmacy",
      "address": "456 Oxford St, London W1C 1AP",
      "country": "UK",
      "city": "London",
      "distance": 0.8,
      "hours": "9AM - 7PM",
      "phone": "+44-20-7123-4568",
      "icon": "ğŸª",
      "rating": 4.1,
      "reviews": 445,
      "services": ["Prescription", "OTC", "Health Screening"]
    },
    {
      "id": 13,
      "name": "Superdrug",
      "address": "789 Regent St, London W1B 4HA",
      "country": "UK",
      "city": "London",
      "distance": 1.1,
      "hours": "8AM - 9PM",
      "phone": "+44-20-7123-4569",
      "icon": "ğŸª",
      "rating": 4.2,
      "reviews": 489,
      "services": ["Prescription", "OTC", "Beauty"]
    },
    {
      "id": 14,
      "name": "Rowlands Pharmacy",
      "address": "321 Church St, Manchester M4 1PD",
      "country": "UK",
      "city": "Manchester",
      "distance": 1.3,
      "hours": "8:30AM - 6:30PM",
      "phone": "+44-161-123-4567",
      "icon": "ğŸª",
      "rating": 4.4,
      "reviews": 523,
      "services": ["Prescription", "OTC", "Health Screening"]
    },
    {
      "id": 15,
      "name": "Well Pharmacy",
      "address": "654 Princess St, Edinburgh EH2 4AD",
      "country": "UK",
      "city": "Edinburgh",
      "distance": 1.6,
      "hours": "9AM - 6PM",
      "phone": "+44-131-123-4567",
      "icon": "ğŸª",
      "rating": 4.3,
      "reviews": 478,
      "services": ["Prescription", "OTC"]
    },
    {
      "id": 16,
      "name": "Day Lewis Pharmacy",
      "address": "987 High St, Birmingham B1 1AA",
      "country": "UK",
      "city": "Birmingham",
      "distance": 1.9,
      "hours": "8AM - 7PM",
      "phone": "+44-121-123-4567",
      "icon": "ğŸª",
      "rating": 4.2,
      "reviews": 412,
      "services": ["Prescription", "OTC", "Health Screening"]
    },
    {
      "id": 17,
      "name": "Shoppers Drug Mart",
      "address": "123 Yonge St, Toronto, ON M5C 1W4",
      "country": "Canada",
      "city": "Toronto",
      "distance": 0.6,
      "hours": "8AM - 10PM",
      "phone": "+1-416-555-1234",
      "icon": "ğŸª",
      "rating": 4.5,
      "reviews": 678,
      "services": ["Prescription", "OTC", "Beauty", "Photo"]
    },
    {
      "id": 18,
      "name": "Rexall",
      "address": "456 Queen St W, Toronto, ON M5V 2A8",
      "country": "Canada",
      "city": "Toronto",
      "distance": 1.2,
      "hours": "9AM - 9PM",
      "phone": "+1-416-555-5678",
      "icon": "ğŸª",
      "rating": 4.3,
      "reviews": 545,
      "services": ["Prescription", "OTC", "Health Screening"]
    },
    {
      "id": 19,
      "name": "London Drugs",
      "address": "789 Robson St, Vancouver, BC V6Z 2H4",
      "country": "Canada",
      "city": "Vancouver",
      "distance": 1.5,
      "hours": "8AM - 9PM",
      "phone": "+1-604-555-9012",
      "icon": "ğŸª",
      "rating": 4.4,
      "reviews": 612,
      "services": ["Prescription", "OTC", "Electronics", "Photo"]
    },
    {
      "id": 20,
      "name": "Pharmaprix",
      "address": "321 Sainte-Catherine St, Montreal, QC H2X 1L2",
      "country": "Canada",
      "city": "Montreal",
      "distance": 1.8,
      "hours": "8AM - 10PM",
      "phone": "+1-514-555-3456",
      "icon": "ğŸª",
      "rating": 4.2,
      "reviews": 489,
      "services": ["Prescription", "OTC", "Beauty"]
    },
    {
      "id": 21,
      "name": "Apollo Pharmacy",
      "address": "123 MG Road, Bangalore, Karnataka 560001",
      "country": "India",
      "city": "Bangalore",
      "distance": 0.4,
      "hours": "8AM - 10PM",
      "phone": "+91-80-2555-1234",
      "icon": "ğŸª",
      "rating": 4.6,
      "reviews": 890,
      "services": ["Prescription", "OTC", "Health Screening", "Lab Tests"]
    },
    {
      "id": 22,
      "name": "MedPlus",
      "address": "456 Brigade Road, Bangalore, Karnataka 560001",
      "country": "India",
      "city": "Bangalore",
      "distance": 0.7,
      "hours": "9AM - 9PM",
      "phone": "+91-80-2555-5678",
      "icon": "ğŸª",
      "rating": 4.4,
      "reviews": 756,
      "services": ["Prescription", "OTC", "Health Screening"]
    },
    {
      "id": 23,
      "name": "Netmeds",
      "address": "789 Koramangala, Bangalore, Karnataka 560034",
      "country": "India",
      "city": "Bangalore",
      "distance": 1.1,
      "hours": "24/7 Online",
      "phone": "+91-80-2555-9012",
      "icon": "ğŸª",
      "rating": 4.5,
      "reviews": 1234,
      "services": ["Prescription", "OTC", "Home Delivery"]
    },
    {
      "id": 24,
      "name": "1mg",
      "address": "321 Indiranagar, Bangalore, Karnataka 560038",
      "country": "India",
      "city": "Bangalore",
      "distance": 1.4,
      "hours": "24/7 Online",
      "phone": "+91-80-2555-3456",
      "icon": "ğŸª",
      "rating": 4.3,
      "reviews": 987,
      "services": ["Prescription", "OTC", "Lab Tests", "Home Delivery"]
    },
    {
      "id": 25,
      "name": "PharmEasy",
      "address": "654 Whitefield, Bangalore, Karnataka 560066",
      "country": "India",
      "city": "Bangalore",
      "distance": 1.7,
      "hours": "24/7 Online",
      "phone": "+91-80-2555-7890",
      "icon": "ğŸª",
      "rating": 4.4,
      "reviews": 1123,
      "services": ["Prescription", "OTC", "Lab Tests", "Home Delivery"]
    },
    {
      "id": 26,
      "name": "Guardian Pharmacy",
      "address": "987 Andheri West, Mumbai, Maharashtra 400058",
      "country": "India",
      "city": "Mumbai",
      "distance": 0.9,
      "hours": "8AM - 10PM",
      "phone": "+91-22-2555-1234",
      "icon": "ğŸª",
      "rating": 4.5,
      "reviews": 678,
      "services": ["Prescription", "OTC", "Beauty", "Health Screening"]
    },
    {
      "id": 27,
      "name": "Wellness Forever",
      "address": "147 Bandra West, Mumbai, Maharashtra 400050",
      "country": "India",
      "city": "Mumbai",
      "distance": 1.2,
      "hours": "9AM - 9PM",
      "phone": "+91-22-2555-5678",
      "icon": "ğŸª",
      "rating": 4.3,
      "reviews": 545,
      "services": ["Prescription", "OTC", "Health Screening"]
    },
    {
      "id": 28,
      "name": "Watsons",
      "address": "258 Orchard Road, Singapore 238859",
      "country": "Singapore",
      "city": "Singapore",
      "distance": 0.8,
      "hours": "10AM - 10PM",
      "phone": "+65-6235-1234",
      "icon": "ğŸª",
      "rating": 4.4,
      "reviews": 612,
      "services": ["Prescription", "OTC", "Beauty", "Health Screening"]
    },
    {
      "id": 29,
      "name": "Guardian Health & Beauty",
      "address": "369 Marina Bay Sands, Singapore 018956",
      "country": "Singapore",
      "city": "Singapore",
      "distance": 1.3,
      "hours": "10AM - 11PM",
      "phone": "+65-6235-5678",
      "icon": "ğŸª",
      "rating": 4.5,
      "reviews": 678,
      "services": ["Prescription", "OTC", "Beauty", "Health Screening"]
    },
    {
      "id": 30,
      "name": "Unity Pharmacy",
      "address": "741 Tampines Ave, Singapore 520741",
      "country": "Singapore",
      "city": "Singapore",
      "distance": 1.6,
      "hours": "8AM - 10PM",
      "phone": "+65-6235-9012",
      "icon": "ğŸª",
      "rating": 4.2,
      "reviews": 489,
      "services": ["Prescription", "OTC", "Health Screening"]
    }
  ],
  "countries": ["USA", "UK", "Canada", "India", "Singapore"],
  "services": ["Prescription", "OTC", "Vaccinations", "Health Screening", "Beauty", "Photo", "Lab Tests", "Home Delivery"]
} 